{"displayFieldName":"","fieldAliases":{"OBJECTID":"OBJECTID","Address":"Address","COMPANY_NA":"COMPANY_NA","Hours_of_O":"Hours_of_O","fac_type":"fac_type","CoolCenter":"CoolCenter"},"geometryType":"esriGeometryPoint","spatialReference":{"wkid":102740,"latestWkid":2278},"fields":[{"name":"OBJECTID","type":"esriFieldTypeOID","alias":"OBJECTID"},{"name":"Address","type":"esriFieldTypeString","alias":"Address","length":254},{"name":"COMPANY_NA","type":"esriFieldTypeString","alias":"COMPANY_NA","length":50},{"name":"Hours_of_O","type":"esriFieldTypeString","alias":"Hours_of_O","length":254},{"name":"fac_type","type":"esriFieldTypeString","alias":"fac_type","length":50},{"name":"CoolCenter","type":"esriFieldTypeString","alias":"CoolCenter","length":5}],"features":[{"attributes":{"OBJECTID":1,"Address":"9720 Spaulding","COMPANY_NA":"Tidwell","Hours_of_O":" ","fac_type":"Pool","CoolCenter":"NO"},"geometry":{"x":3140032.7600389272,"y":13875560.97847563}},{"attributes":{"OBJECTID":2,"Address":"3200 Russell","COMPANY_NA":"Tuffly","Hours_of_O":" ","fac_type":"Pool","CoolCenter":"NO"},"geometry":{"x":3131789.4079762846,"y":13853313.044058949}},{"attributes":{"OBJECTID":3,"Address":"11903 Bellaire","COMPANY_NA":"Alief","Hours_of_O":" ","fac_type":"Pool","CoolCenter":"NO"},"geometry":{"x":3051336.7399713248,"y":13818646.137182415}},{"attributes":{"OBJECTID":4,"Address":"6402 Arnot","COMPANY_NA":"Memorial","Hours_of_O":" ","fac_type":"Pool","CoolCenter":"NO"},"geometry":{"x":3101182.977276504,"y":13844850.154629633}},{"attributes":{"OBJECTID":5,"Address":"6600 Harbor Town","COMPANY_NA":"Sharpstown","Hours_of_O":" ","fac_type":"Pool","CoolCenter":"NO"},"geometry":{"x":3069522.3284791112,"y":13820898.078699112}},{"attributes":{"OBJECTID":6,"Address":"3403 Simsbrook","COMPANY_NA":"Townwood","Hours_of_O":" ","fac_type":"Pool","CoolCenter":"NO"},"geometry":{"x":3102783.8005890548,"y":13790323.4748348}},{"attributes":{"OBJECTID":7,"Address":"10605 Mullins","COMPANY_NA":"Westbury","Hours_of_O":" ","fac_type":"Pool","CoolCenter":"NO"},"geometry":{"x":3084472.8158117235,"y":13806471.218654126}},{"attributes":{"OBJECTID":8,"Address":"14441 Croquet","COMPANY_NA":"Windsor Village","Hours_of_O":" ","fac_type":"Pool","CoolCenter":"NO"},"geometry":{"x":3088626.962342605,"y":13788794.256467849}},{"attributes":{"OBJECTID":9,"Address":"9800 Kingspoint","COMPANY_NA":"Beverly Hills","Hours_of_O":" ","fac_type":"Pool","CoolCenter":"NO"},"geometry":{"x":3164095.3263576031,"y":13789827.038087085}},{"attributes":{"OBJECTID":10,"Address":"200 Mississippi","COMPANY_NA":"Clinton","Hours_of_O":" ","fac_type":"Pool","CoolCenter":"NO"},"geometry":{"x":3154646.7484662831,"y":13836909.288811684}},{"attributes":{"OBJECTID":11,"Address":"11800 Scott","COMPANY_NA":"Cloverland","Hours_of_O":" ","fac_type":"Pool","CoolCenter":"NO"},"geometry":{"x":3122485.4279187918,"y":13795402.133435071}},{"attributes":{"OBJECTID":12,"Address":"1020 Gazin","COMPANY_NA":"Denver Harbor","Hours_of_O":" ","fac_type":"Pool","CoolCenter":"NO"},"geometry":{"x":3140569.8584331423,"y":13846301.60116373}},{"attributes":{"OBJECTID":13,"Address":"7521 Avenue H","COMPANY_NA":"DeZavala","Hours_of_O":" ","fac_type":"Pool","CoolCenter":"NO"},"geometry":{"x":3145906.6983768195,"y":13834619.855398431}},{"attributes":{"OBJECTID":14,"Address":"5000 Harrisburg","COMPANY_NA":"Eastwood","Hours_of_O":" ","fac_type":"Pool","CoolCenter":"NO"},"geometry":{"x":3134201.4311758131,"y":13835775.449717239}},{"attributes":{"OBJECTID":15,"Address":"3018 Dowling","COMPANY_NA":"Emancipation","Hours_of_O":" ","fac_type":"Pool","CoolCenter":"NO"},"geometry":{"x":3122133.2198718935,"y":13833054.863525271}},{"attributes":{"OBJECTID":16,"Address":"4900 Providence","COMPANY_NA":"Finnigan","Hours_of_O":" ","fac_type":"Pool","CoolCenter":"NO"},"geometry":{"x":3135781.0803803951,"y":13845460.879550591}},{"attributes":{"OBJECTID":17,"Address":"6900 La Salette","COMPANY_NA":"George T. Nelson","Hours_of_O":" ","fac_type":"Pool","CoolCenter":"NO"},"geometry":{"x":3122806.5234283805,"y":13817582.975759208}},{"attributes":{"OBJECTID":18,"Address":"8201 North Bayou","COMPANY_NA":"Glenbrook","Hours_of_O":" ","fac_type":"Pool","CoolCenter":"NO"},"geometry":{"x":3154436.1553845257,"y":13816160.500988811}},{"attributes":{"OBJECTID":19,"Address":"1422 Ledwicke","COMPANY_NA":"J. Robinson, Sr.","Hours_of_O":" ","fac_type":"Pool","CoolCenter":"NO"},"geometry":{"x":3151375.0718185753,"y":13843936.15820162}},{"attributes":{"OBJECTID":20,"Address":"5225 Calhoun","COMPANY_NA":"MacGregor","Hours_of_O":" ","fac_type":"Pool","CoolCenter":"NO"},"geometry":{"x":3129782.5467176586,"y":13823741.538382396}},{"attributes":{"OBJECTID":21,"Address":"541 South 75th","COMPANY_NA":"Mason","Hours_of_O":" ","fac_type":"Pool","CoolCenter":"NO"},"geometry":{"x":3144216.2639291883,"y":13829765.045096561}},{"attributes":{"OBJECTID":22,"Address":"7700 Oak Vista","COMPANY_NA":"Reveille","Hours_of_O":" ","fac_type":"Pool","CoolCenter":"NO"},"geometry":{"x":3147762.9050928205,"y":13813055.899503693}},{"attributes":{"OBJECTID":23,"Address":"11507 Hughes","COMPANY_NA":"Sagemont","Hours_of_O":" ","fac_type":"Pool","CoolCenter":"NO"},"geometry":{"x":3170428.3061443418,"y":13784744.276570261}},{"attributes":{"OBJECTID":24,"Address":"3502 Bellfort","COMPANY_NA":"Sunnyside","Hours_of_O":" ","fac_type":"Pool","CoolCenter":"NO"},"geometry":{"x":3120568.1195273697,"y":13808581.441691995}},{"attributes":{"OBJECTID":25,"Address":"100 Gilpin","COMPANY_NA":"Wilson Memorial","Hours_of_O":" ","fac_type":"Pool","CoolCenter":"NO"},"geometry":{"x":3169426.7170318216,"y":13800184.971694961}},{"attributes":{"OBJECTID":26,"Address":"6500 Antoine","COMPANY_NA":"Aron Ledet Park","Hours_of_O":" ","fac_type":"Spray Park","CoolCenter":"NO"},"geometry":{"x":3086700.4389844239,"y":13877383.018697634}},{"attributes":{"OBJECTID":27,"Address":"5600 Court Road. ","COMPANY_NA":"Blueridge Park","Hours_of_O":" ","fac_type":"Spray Park","CoolCenter":"NO"},"geometry":{"x":3088791.7988287061,"y":13779270.788308844}},{"attributes":{"OBJECTID":28,"Address":"6200 Chimney Rock","COMPANY_NA":"Burnett Bayland Park","Hours_of_O":" ","fac_type":"Spray Park","CoolCenter":"NO"},"geometry":{"x":3086793.0378805995,"y":13823922.909082651}},{"attributes":{"OBJECTID":29,"Address":"19008 Saums Road  ","COMPANY_NA":"Cullen Park","Hours_of_O":" ","fac_type":"Spray Park","CoolCenter":"NO"},"geometry":{"x":3015241.0336751789,"y":13852633.95566304}},{"attributes":{"OBJECTID":30,"Address":"9010 Dodson ","COMPANY_NA":"Dodson Lake","Hours_of_O":" ","fac_type":"Spray Park","CoolCenter":"NO"},"geometry":{"x":3131332.4031980187,"y":13872231.447635964}},{"attributes":{"OBJECTID":31,"Address":"5803 Bellfort","COMPANY_NA":"Edgewood Park","Hours_of_O":" ","fac_type":"Spray Park","CoolCenter":"NO"},"geometry":{"x":3133174.6403271854,"y":13808277.601790652}},{"attributes":{"OBJECTID":32,"Address":"4502 Dunlavy","COMPANY_NA":"Ervan Chew Park","Hours_of_O":" ","fac_type":"Spray Park","CoolCenter":"NO"},"geometry":{"x":3110115.4987815171,"y":13831431.618474647}},{"attributes":{"OBJECTID":33,"Address":"7900 Flaxman ","COMPANY_NA":"Gutierrez Park","Hours_of_O":" ","fac_type":"Spray Park","CoolCenter":"NO"},"geometry":{"x":3146375.7904339731,"y":13842222.059820235}},{"attributes":{"OBJECTID":34,"Address":"7777 S. Dairy Ashford","COMPANY_NA":"Hackberry Park","Hours_of_O":" ","fac_type":"Spray Park","CoolCenter":"NO"},"geometry":{"x":3046693.2329097688,"y":13815085.018950045}},{"attributes":{"OBJECTID":35,"Address":"400 Mercury","COMPANY_NA":"Herman Brown Park","Hours_of_O":" ","fac_type":"Spray Park","CoolCenter":"NO"},"geometry":{"x":3158970.2944443971,"y":13850548.590411231}},{"attributes":{"OBJECTID":36,"Address":"6001 Fannin","COMPANY_NA":"Hermann Park","Hours_of_O":" ","fac_type":"Spray Park","CoolCenter":"NO"},"geometry":{"x":3113829.483151421,"y":13827326.433443576}},{"attributes":{"OBJECTID":37,"Address":"7000 Avenue Q ","COMPANY_NA":"Hidalgo Park ","Hours_of_O":" ","fac_type":"Spray Park","CoolCenter":"NO"},"geometry":{"x":3143710.1043922454,"y":13837480.71208635}},{"attributes":{"OBJECTID":38,"Address":"1300 Seamist ","COMPANY_NA":"Jaycee Park","Hours_of_O":" ","fac_type":"Spray Park","CoolCenter":"NO"},"geometry":{"x":3098153.4649628103,"y":13853182.349907473}},{"attributes":{"OBJECTID":39,"Address":"11000 S. Gessner","COMPANY_NA":"Marian Park","Hours_of_O":" ","fac_type":"Spray Park","CoolCenter":"NO"},"geometry":{"x":3070970.3989222199,"y":13804059.980304629}},{"attributes":{"OBJECTID":40,"Address":"12200 Melrose Park Road","COMPANY_NA":"Melrose Park","Hours_of_O":" ","fac_type":"Spray Park","CoolCenter":"NO"},"geometry":{"x":3117816.2179601043,"y":13883781.54297404}},{"attributes":{"OBJECTID":41,"Address":"915 Northwood","COMPANY_NA":"Montie Beach Park","Hours_of_O":" ","fac_type":"Spray Park","CoolCenter":"NO"},"geometry":{"x":3116246.1125044972,"y":13856207.831061214}},{"attributes":{"OBJECTID":42,"Address":"500 Port","COMPANY_NA":"Nieto Park","Hours_of_O":" ","fac_type":"Spray Park","CoolCenter":"NO"},"geometry":{"x":3143131.384193182,"y":13849776.42135188}},{"attributes":{"OBJECTID":43,"Address":"5400 Griggs Road","COMPANY_NA":"Park at Palm Center","Hours_of_O":" ","fac_type":"Spray Park","CoolCenter":"NO"},"geometry":{"x":3132579.3265571594,"y":13818878.372583792}},{"attributes":{"OBJECTID":44,"Address":"3000 Garrow","COMPANY_NA":"Settegast Park","Hours_of_O":" ","fac_type":"Spray Park","CoolCenter":"NO"},"geometry":{"x":3128391.3523215801,"y":13839130.038117141}},{"attributes":{"OBJECTID":45,"Address":"10220 Shady Lane","COMPANY_NA":"Shady Lane Park","Hours_of_O":" ","fac_type":"Spray Park","CoolCenter":"NO"},"geometry":{"x":3127645.9391142279,"y":13878359.759526297}},{"attributes":{"OBJECTID":46,"Address":"9201 Veterans Memorial","COMPANY_NA":"Stuebner Airline Park","Hours_of_O":" ","fac_type":"Spray Park","CoolCenter":"NO"},"geometry":{"x":3100590.4958498925,"y":13890083.9805004}},{"attributes":{"OBJECTID":47,"Address":"808 N. York","COMPANY_NA":"Tony Marron Park","Hours_of_O":" ","fac_type":"Spray Park","CoolCenter":"NO"},"geometry":{"x":3132632.1115565598,"y":13841306.416638374}},{"attributes":{"OBJECTID":48,"Address":"1414 Gillette","COMPANY_NA":"Wiley Park","Hours_of_O":" ","fac_type":"Spray Park","CoolCenter":"NO"},"geometry":{"x":3115928.6836773902,"y":13839814.543309793}},{"attributes":{"OBJECTID":49,"Address":"5830 Westheimer Rd","COMPANY_NA":"Jungman Library","Hours_of_O":" ","fac_type":"Library","CoolCenter":"NO"},"geometry":{"x":3084994.2734334618,"y":13832656.549751803}},{"attributes":{"OBJECTID":50,"Address":"5414 Franz Rd","COMPANY_NA":"KATY Public Library","Hours_of_O":" ","fac_type":"Library","CoolCenter":"NO"},"geometry":{"x":2977860.8000368178,"y":13852773.812666818}},{"attributes":{"OBJECTID":51,"Address":"609 N. Eldridge","COMPANY_NA":"Kendall Library","Hours_of_O":" ","fac_type":"Library","CoolCenter":"NO"},"geometry":{"x":3047517.1069181561,"y":13843294.30177021}},{"attributes":{"OBJECTID":52,"Address":"4102 Rustic Woods Dr","COMPANY_NA":"Kingwood Public Library","Hours_of_O":" ","fac_type":"Library","CoolCenter":"NO"},"geometry":{"x":3174999.2285938412,"y":13950751.250241712}},{"attributes":{"OBJECTID":53,"Address":"600 S Broadway St","COMPANY_NA":"LA Porte Public Library","Hours_of_O":" ","fac_type":"Library","CoolCenter":"NO"},"geometry":{"x":3232553.931725651,"y":13808607.915762559}},{"attributes":{"OBJECTID":54,"Address":"2031 River Falls Dr","COMPANY_NA":"Leading Edge Libraries","Hours_of_O":" ","fac_type":"Library","CoolCenter":"NO"},"geometry":{"x":3163469.8330174983,"y":13948444.792256221}},{"attributes":{"OBJECTID":55,"Address":"1515 Holcombe Blvd","COMPANY_NA":"M D Anderson Patient Library","Hours_of_O":" ","fac_type":"Library","CoolCenter":"NO"},"geometry":{"x":3112164.7679768801,"y":13821977.109168485}},{"attributes":{"OBJECTID":56,"Address":"9525 Irvington Blvd","COMPANY_NA":"Moody Library","Hours_of_O":" ","fac_type":"Library","CoolCenter":"NO"},"geometry":{"x":3121413.5224452317,"y":13873622.773921549}},{"attributes":{"OBJECTID":57,"Address":"820 Marston","COMPANY_NA":"Marston","Hours_of_O":" ","fac_type":"Library","CoolCenter":"NO"},"geometry":{"x":3108490.5049842298,"y":13840676.06586498}},{"attributes":{"OBJECTID":58,"Address":"7405 Stella Link","COMPANY_NA":"Stella Link","Hours_of_O":" ","fac_type":"Library","CoolCenter":"NO"},"geometry":{"x":3098481.1011185944,"y":13818697.198733568}},{"attributes":{"OBJECTID":59,"Address":"11331 Airline Dr","COMPANY_NA":"Aldine Public Library","Hours_of_O":" ","fac_type":"Library","CoolCenter":"NO"},"geometry":{"x":3106480.0434539616,"y":13899789.191076815}},{"attributes":{"OBJECTID":60,"Address":"19520 Pinehurst Trail Dr","COMPANY_NA":"Atascocita Public Library","Hours_of_O":" ","fac_type":"Library","CoolCenter":"NO"},"geometry":{"x":3185716.7330773771,"y":13932385.326671809}},{"attributes":{"OBJECTID":61,"Address":"22248 Aldine Westfield Rd","COMPANY_NA":"Baldwin Boettcher Public Lbrry","Hours_of_O":" ","fac_type":"Library","CoolCenter":"NO"},"geometry":{"x":3113136.5816500783,"y":13942668.49016054}},{"attributes":{"OBJECTID":62,"Address":"6817 Cypresswood Dr","COMPANY_NA":"Barbara Bush Public Library","Hours_of_O":" ","fac_type":"Library","CoolCenter":"NO"},"geometry":{"x":3072713.0063294172,"y":13932358.468457803}},{"attributes":{"OBJECTID":63,"Address":"16719 Clay Rd","COMPANY_NA":"Bear Creek Public Library","Hours_of_O":" ","fac_type":"Library","CoolCenter":"NO"},"geometry":{"x":3028786.4524504095,"y":13866225.713584468}},{"attributes":{"OBJECTID":64,"Address":"5111 Jessamine St","COMPANY_NA":"Bellaire City Library","Hours_of_O":" ","fac_type":"Library","CoolCenter":"NO"},"geometry":{"x":3089122.338011995,"y":13819702.509058893}},{"attributes":{"OBJECTID":65,"Address":"9002 Kingspoint Dr","COMPANY_NA":"Bracewell Library","Hours_of_O":" ","fac_type":"Library","CoolCenter":"NO"},"geometry":{"x":3166217.1936644763,"y":13792983.660265729}},{"attributes":{"OBJECTID":66,"Address":"310 N Live Oak St","COMPANY_NA":"Chapparral Genealogy Society","Hours_of_O":" ","fac_type":"Community Center","CoolCenter":"NO"},"geometry":{"x":3039670.1108011603,"y":13963494.452445552}},{"attributes":{"OBJECTID":67,"Address":"135 Hare Rd","COMPANY_NA":"Crosby Public Library","Hours_of_O":" ","fac_type":"Library","CoolCenter":"NO"},"geometry":{"x":3213396.8099349886,"y":13903080.18547906}},{"attributes":{"OBJECTID":68,"Address":"9191 Barker Cypress Rd","COMPANY_NA":"Cy-Fair College Library","Hours_of_O":" ","fac_type":"Library","CoolCenter":"NO"},"geometry":{"x":3018152.6407128423,"y":13895284.836896554}},{"attributes":{"OBJECTID":69,"Address":"3009 Center St","COMPANY_NA":"Deer Park Public Library","Hours_of_O":" ","fac_type":"Library","CoolCenter":"NO"},"geometry":{"x":3199190.1392014474,"y":13816695.278852895}},{"attributes":{"OBJECTID":70,"Address":"1014 Centerwood Dr","COMPANY_NA":"Emanuel Libreria Cristiana","Hours_of_O":" ","fac_type":"Library","CoolCenter":"NO"},"geometry":{"x":3165588.4944625497,"y":13847907.250877634}},{"attributes":{"OBJECTID":71,"Address":"2400 Meyer Rd","COMPANY_NA":"Evelyn Meador Public Library","Hours_of_O":" ","fac_type":"Library","CoolCenter":"NO"},"geometry":{"x":3234378.0422506779,"y":13776801.942301139}},{"attributes":{"OBJECTID":72,"Address":"7122 Gessner Dr","COMPANY_NA":"Fairbanks Public Library","Hours_of_O":" ","fac_type":"Library","CoolCenter":"NO"},"geometry":{"x":3064695.7516946942,"y":13881960.814988226}},{"attributes":{"OBJECTID":73,"Address":"4330 Fairmont Pkwy","COMPANY_NA":"Fairmont Branch Library","Hours_of_O":" ","fac_type":"Library","CoolCenter":"NO"},"geometry":{"x":3182341.5137780011,"y":13803632.244611561}},{"attributes":{"OBJECTID":74,"Address":"6440 W Bellfort St","COMPANY_NA":"Frank Library","Hours_of_O":" ","fac_type":"Library","CoolCenter":"NO"},"geometry":{"x":3078438.6234870851,"y":13802690.744854137}},{"attributes":{"OBJECTID":75,"Address":"16616 Diana Ln","COMPANY_NA":"Freeman Memorial Public Lbrry","Hours_of_O":" ","fac_type":"Library","CoolCenter":"NO"},"geometry":{"x":3201759.8059780747,"y":13771240.869761899}},{"attributes":{"OBJECTID":76,"Address":"1500 Keene St","COMPANY_NA":"Galena Park Public Library","Hours_of_O":" ","fac_type":"Library","CoolCenter":"NO"},"geometry":{"x":3162542.4526544511,"y":13837028.955705151}},{"attributes":{"OBJECTID":77,"Address":"3120 Southwest Fwy","COMPANY_NA":"Goethe Institute-German Ctr","Hours_of_O":" ","fac_type":"Library","CoolCenter":"NO"},"geometry":{"x":3102676.2774395049,"y":13830558.998828813}},{"attributes":{"OBJECTID":78,"Address":"8080 El Rio St","COMPANY_NA":"Harris County Library","Hours_of_O":" ","fac_type":"Library","CoolCenter":"NO"},"geometry":{"x":3114860.5083203167,"y":13814595.061596647}},{"attributes":{"OBJECTID":79,"Address":"7979 S Kirkwood Rd","COMPANY_NA":"Henington-Alief Library","Hours_of_O":" ","fac_type":"Library","CoolCenter":"NO"},"geometry":{"x":3051756.7277040184,"y":13814933.339463383}},{"attributes":{"OBJECTID":80,"Address":"4500 Aldine Mail Rd","COMPANY_NA":"High Meadows Public Library","Hours_of_O":" ","fac_type":"Library","CoolCenter":"NO"},"geometry":{"x":3132016.6734829843,"y":13894004.698052645}},{"attributes":{"OBJECTID":81,"Address":"PO Box 60106","COMPANY_NA":"Houston City Aviation Tech Lib","Hours_of_O":" ","fac_type":"Library","CoolCenter":"NO"},"geometry":{"x":3128578.3900052458,"y":13916625.506485477}},{"attributes":{"OBJECTID":82,"Address":"921 Akron St","COMPANY_NA":"Jacinto City Public Library","Hours_of_O":" ","fac_type":"Library","CoolCenter":"NO"},"geometry":{"x":3160980.7976412177,"y":13847678.749694228}},{"attributes":{"OBJECTID":83,"Address":"1133 John Freeman Blvd","COMPANY_NA":"Jones Jessie H Library Bldg","Hours_of_O":" ","fac_type":"Library","CoolCenter":"NO"},"geometry":{"x":3111556.5431435108,"y":13823988.388610467}},{"attributes":{"OBJECTID":84,"Address":"15741 Wallisville Rd","COMPANY_NA":"North Channel Public Library","Hours_of_O":" ","fac_type":"Library","CoolCenter":"NO"},"geometry":{"x":3187351.2416193783,"y":13862354.605513051}},{"attributes":{"OBJECTID":85,"Address":"11355 Regency Green Dr","COMPANY_NA":"Northwest Public Library","Hours_of_O":" ","fac_type":"Library","CoolCenter":"NO"},"geometry":{"x":3047504.9976903796,"y":13913285.665068045}},{"attributes":{"OBJECTID":86,"Address":"1503 S Houston Ave","COMPANY_NA":"Octavia Fields Public Library","Hours_of_O":" ","fac_type":"Library","CoolCenter":"NO"},"geometry":{"x":3152179.4769893438,"y":13923088.760291219}},{"attributes":{"OBJECTID":87,"Address":"10851 Scarsdale Blvd","COMPANY_NA":"Parker Williams Public Library","Hours_of_O":" ","fac_type":"Library","CoolCenter":"NO"},"geometry":{"x":3171420.6917876601,"y":13779341.564190388}},{"attributes":{"OBJECTID":88,"Address":"1201 Jeff Ginn Memorial Dr","COMPANY_NA":"Pasadena Public Library","Hours_of_O":" ","fac_type":"Library","CoolCenter":"NO"},"geometry":{"x":3175616.9921220839,"y":13818973.536435485}},{"attributes":{"OBJECTID":89,"Address":"3523 Liberty Rd","COMPANY_NA":"Pearland Library","Hours_of_O":" ","fac_type":"Library","CoolCenter":"NO"},"geometry":{"x":3130913.381070137,"y":13851137.143367961}},{"attributes":{"OBJECTID":90,"Address":"3100 Cleburne St","COMPANY_NA":"Robert James Terry Library","Hours_of_O":" ","fac_type":"Library","CoolCenter":"NO"},"geometry":{"x":3122563.0024297535,"y":13829124.055504471}},{"attributes":{"OBJECTID":91,"Address":"607 Avenue A","COMPANY_NA":"South Houston Public Library","Hours_of_O":" ","fac_type":"Library","CoolCenter":"NO"},"geometry":{"x":3167317.0697455853,"y":13809223.417156219}},{"attributes":{"OBJECTID":92,"Address":"930 Corbindale Rd","COMPANY_NA":"Spring Branch Public Library","Hours_of_O":" ","fac_type":"Library","CoolCenter":"NO"},"geometry":{"x":3074545.4373757988,"y":13848099.593996882}},{"attributes":{"OBJECTID":93,"Address":"611 Ssgt Macario Garcia Dr","COMPANY_NA":"Stanaker Library","Hours_of_O":" ","fac_type":"Library","CoolCenter":"NO"},"geometry":{"x":3141570.0467646718,"y":13835090.062929377}},{"attributes":{"OBJECTID":94,"Address":"Mary E Wilbanks Ave","COMPANY_NA":"Sterling Municipal Library","Hours_of_O":" ","fac_type":"Library","CoolCenter":"NO"},"geometry":{"x":3248061.9581242651,"y":13840841.127870798}},{"attributes":{"OBJECTID":95,"Address":"509 Stratford St","COMPANY_NA":"Stratford Public Library","Hours_of_O":" ","fac_type":"Library","CoolCenter":"NO"},"geometry":{"x":3216619.4947625548,"y":13867338.163459301}},{"attributes":{"OBJECTID":96,"Address":"PO Box 2463","COMPANY_NA":"Tax Library","Hours_of_O":" ","fac_type":"Library","CoolCenter":"NO"},"geometry":{"x":3120995.2637673169,"y":13841459.376962394}},{"attributes":{"OBJECTID":97,"Address":"PO Box 16017","COMPANY_NA":"Texas Health Human Svc Library","Hours_of_O":" ","fac_type":"Library","CoolCenter":"NO"},"geometry":{"x":3115501.8531662524,"y":13863572.593562648}},{"attributes":{"OBJECTID":98,"Address":"6043 South Loop E","COMPANY_NA":"University-Houston Library","Hours_of_O":" ","fac_type":"Library","CoolCenter":"NO"},"geometry":{"x":3134314.9995949715,"y":13817307.489898801}},{"attributes":{"OBJECTID":99,"Address":"515 Rusk St # 6311","COMPANY_NA":"Us Courts Library","Hours_of_O":" ","fac_type":"Library","CoolCenter":"NO"},"geometry":{"x":3120720.8965339214,"y":13842116.626304045}},{"attributes":{"OBJECTID":100,"Address":"2002 Holcombe Blvd","COMPANY_NA":"VA Medical Ctr Library","Hours_of_O":" ","fac_type":"Library","CoolCenter":"NO"},"geometry":{"x":3114273.2634318173,"y":13821885.717290878}},{"attributes":{"OBJECTID":101,"Address":"6108 Auden St","COMPANY_NA":"West University Public Library","Hours_of_O":" ","fac_type":"Library","CoolCenter":"NO"},"geometry":{"x":3099147.8202575892,"y":13825376.279863566}},{"attributes":{"OBJECTID":102,"Address":"I-10 & Beltway 8","COMPANY_NA":"Citycentre","Hours_of_O":" ","fac_type":"Mall","CoolCenter":"NO"},"geometry":{"x":3059974.9608894885,"y":13842803.20963724}},{"attributes":{"OBJECTID":103,"Address":"303 Memorial City # 303","COMPANY_NA":"Memorial City Mall","Hours_of_O":" ","fac_type":"Mall","CoolCenter":"NO"},"geometry":{"x":3067222.5309488028,"y":13847328.200806409}},{"attributes":{"OBJECTID":104,"Address":"7500 Bellaire Blvd # 201","COMPANY_NA":"Plaza America","Hours_of_O":" ","fac_type":"Mall","CoolCenter":"NO"},"geometry":{"x":3074276.2939634174,"y":13821198.362757877}},{"attributes":{"OBJECTID":105,"Address":"5085 Westheimer Rd # 4800","COMPANY_NA":"Galleria","Hours_of_O":" ","fac_type":"Mall","CoolCenter":"NO"},"geometry":{"x":3090428.9512610137,"y":13833775.119121194}},{"attributes":{"OBJECTID":106,"Address":"208 Greenspoint Mall","COMPANY_NA":"Gpm Houston Properties Ltd","Hours_of_O":" ","fac_type":"Mall","CoolCenter":"NO"},"geometry":{"x":3168794.9288894981,"y":13792410.565155968}},{"attributes":{"OBJECTID":107,"Address":"12300 North Fwy","COMPANY_NA":"Greenspoint Mall","Hours_of_O":" ","fac_type":"Mall","CoolCenter":"NO"},"geometry":{"x":3109348.358624205,"y":13906183.662055716}},{"attributes":{"OBJECTID":108,"Address":"5507 FM 1960 Rd W","COMPANY_NA":"Champions Village Shopping Ctr","Hours_of_O":" ","fac_type":"Mall","CoolCenter":"NO"},"geometry":{"x":3072356.4988521934,"y":13920287.417600304}},{"attributes":{"OBJECTID":109,"Address":"1000 W Oaks Mall","COMPANY_NA":"West Oaks Mall","Hours_of_O":" ","fac_type":"Mall","CoolCenter":"NO"},"geometry":{"x":3039692.0246591419,"y":13824860.365340874}},{"attributes":{"OBJECTID":110,"Address":"9800 Hempstead Rd","COMPANY_NA":"Northwest Mall","Hours_of_O":" ","fac_type":"Mall","CoolCenter":"NO"},"geometry":{"x":3091287.6859671772,"y":13855781.7219349}},{"attributes":{"OBJECTID":111,"Address":"20131 Highway 59 N","COMPANY_NA":"Deerbrook Mall","Hours_of_O":" ","fac_type":"Mall","CoolCenter":"NO"},"geometry":{"x":3149556.7241789699,"y":13932387.137529656}},{"attributes":{"OBJECTID":112,"Address":"2 Financial Plz # 690","COMPANY_NA":"West Hill Mall","Hours_of_O":" ","fac_type":"Mall","CoolCenter":"NO"},"geometry":{"x":3046441.7601903081,"y":14187084.13303636}},{"attributes":{"OBJECTID":113,"Address":"1201 Lake Woodlands Dr # 700","COMPANY_NA":"Woodlands Mall","Hours_of_O":" ","fac_type":"Mall","CoolCenter":"NO"},"geometry":{"x":3088951.0927927494,"y":13988891.474325359}},{"attributes":{"OBJECTID":114,"Address":"16535 Southwest Fwy # 1","COMPANY_NA":"First Colony Mall","Hours_of_O":" ","fac_type":"Mall","CoolCenter":"NO"},"geometry":{"x":3041220.2652454674,"y":13778630.229742989}},{"attributes":{"OBJECTID":115,"Address":"5000 Katy Mills Cir","COMPANY_NA":"Mills Corp","Hours_of_O":" ","fac_type":"Mall","CoolCenter":"NO"},"geometry":{"x":2979815.6196641624,"y":13842355.501668021}},{"attributes":{"OBJECTID":116,"Address":"171 Pasadena Town Square Mall","COMPANY_NA":"Pasadena Town Square","Hours_of_O":" ","fac_type":"Mall","CoolCenter":"NO"},"geometry":{"x":3176172.1297928095,"y":13819455.830601647}},{"attributes":{"OBJECTID":117,"Address":"1496 San Jacinto Mall","COMPANY_NA":"San Jacinto Mall","Hours_of_O":" ","fac_type":"Mall","CoolCenter":"NO"},"geometry":{"x":3242425.2163557708,"y":13861452.479044065}},{"attributes":{"OBJECTID":118,"Address":"500 Baybrook Mall","COMPANY_NA":"Baybrook Mall","Hours_of_O":" ","fac_type":"Mall","CoolCenter":"NO"},"geometry":{"x":3191910.6997624487,"y":13765410.066267937}},{"attributes":{"OBJECTID":119,"Address":"19400 Gulf Fwy","COMPANY_NA":"Thirsty's Baybrook Mall","Hours_of_O":" ","fac_type":"Mall","CoolCenter":"NO"},"geometry":{"x":3177618.6813725978,"y":13757630.175535902}},{"attributes":{"OBJECTID":120,"Address":"100 Highway 332 W # 1022","COMPANY_NA":"Brazos Mall","Hours_of_O":" ","fac_type":"Mall","CoolCenter":"NO"},"geometry":{"x":3098373.5571242124,"y":13583749.685280144}},{"attributes":{"OBJECTID":121,"Address":"Smith Ranch Rd & FM 518","COMPANY_NA":"Crossing at 518","Hours_of_O":" ","fac_type":"Mall","CoolCenter":"NO"},"geometry":{"x":3115596.9083361477,"y":13773177.027492762}},{"attributes":{"OBJECTID":122,"Address":"10000 Emmett F Lowry # 1001","COMPANY_NA":"Mall of the Mainland","Hours_of_O":" ","fac_type":"Mall","CoolCenter":"NO"},"geometry":{"x":3235398.2959819436,"y":13715244.788611665}},{"attributes":{"OBJECTID":123,"Address":"2580 Shearn St","COMPANY_NA":"Target","Hours_of_O":" ","fac_type":"Target","CoolCenter":"NO"},"geometry":{"x":3115175.1138109714,"y":13846807.799304217}},{"attributes":{"OBJECTID":124,"Address":"111 Yale St","COMPANY_NA":"Walmart","Hours_of_O":" ","fac_type":"Walmart","CoolCenter":"NO"},"geometry":{"x":3110762.2129706442,"y":13846909.90309763}},{"attributes":{"OBJECTID":125,"Address":"13750 East Fwy","COMPANY_NA":"Walmart Supercenter","Hours_of_O":" ","fac_type":"Walmart","CoolCenter":"NO"},"geometry":{"x":3180064.4111877978,"y":13847348.11788334}},{"attributes":{"OBJECTID":126,"Address":"5655 E Sam Houston Pkwy N","COMPANY_NA":"Walmart Supercenter","Hours_of_O":" ","fac_type":"Walmart","CoolCenter":"NO"},"geometry":{"x":3184468.3711702675,"y":13860795.850532994}},{"attributes":{"OBJECTID":127,"Address":"4412 North Fwy","COMPANY_NA":"Walmart Supercenter","Hours_of_O":" ","fac_type":"Walmart","CoolCenter":"NO"},"geometry":{"x":3115612.5103373677,"y":13867162.159139633}},{"attributes":{"OBJECTID":128,"Address":"984 Gessner Rd","COMPANY_NA":"Target","Hours_of_O":" ","fac_type":"Target","CoolCenter":"NO"},"geometry":{"x":3065298.4366062284,"y":13848464.130980447}},{"attributes":{"OBJECTID":129,"Address":"8500 Main St","COMPANY_NA":"Super Target","Hours_of_O":" ","fac_type":"Target","CoolCenter":"NO"},"geometry":{"x":3105404.7825995386,"y":13816709.286877185}},{"attributes":{"OBJECTID":130,"Address":"12001 East Fwy","COMPANY_NA":"Target","Hours_of_O":" ","fac_type":"Target","CoolCenter":"NO"},"geometry":{"x":3166462.5624740422,"y":13847604.762518227}},{"attributes":{"OBJECTID":131,"Address":"10411 North Fwy","COMPANY_NA":"Walmart Supercenter","Hours_of_O":" ","fac_type":"Walmart","CoolCenter":"NO"},"geometry":{"x":3104047.8612353355,"y":13898633.973033249}},{"attributes":{"OBJECTID":132,"Address":"13250 Northwest Fwy","COMPANY_NA":"Target","Hours_of_O":" ","fac_type":"Target","CoolCenter":"NO"},"geometry":{"x":3077090.718889758,"y":13872835.314252466}},{"attributes":{"OBJECTID":133,"Address":"13484 Northwest Fwy","COMPANY_NA":"Walmart Supercenter","Hours_of_O":" ","fac_type":"Walmart","CoolCenter":"NO"},"geometry":{"x":3074834.2744196355,"y":13874385.002986908}},{"attributes":{"OBJECTID":134,"Address":"10801 Westheimer Rd","COMPANY_NA":"Target","Hours_of_O":" ","fac_type":"Target","CoolCenter":"NO"},"geometry":{"x":3057540.5764610916,"y":13830974.276623979}},{"attributes":{"OBJECTID":135,"Address":"10750 Westview Dr","COMPANY_NA":"Walmart","Hours_of_O":" ","fac_type":"Walmart","CoolCenter":"NO"},"geometry":{"x":3057853.9440258145,"y":13851107.025492474}},{"attributes":{"OBJECTID":136,"Address":"1118 Silber Rd","COMPANY_NA":"Walmart Supercenter","Hours_of_O":" ","fac_type":"Walmart","CoolCenter":"NO"},"geometry":{"x":3089373.6194522977,"y":13851199.15975298}},{"attributes":{"OBJECTID":137,"Address":"8605 Westheimer Rd","COMPANY_NA":"Target","Hours_of_O":" ","fac_type":"Target","CoolCenter":"NO"},"geometry":{"x":3073468.1181510836,"y":13831623.873308077}},{"attributes":{"OBJECTID":138,"Address":"2727 Dunvale Rd","COMPANY_NA":"Walmart Supercenter","Hours_of_O":" ","fac_type":"Walmart","CoolCenter":"NO"},"geometry":{"x":3075163.9939510673,"y":13831630.040409029}},{"attributes":{"OBJECTID":139,"Address":"10701 Jones Rd","COMPANY_NA":"Target","Hours_of_O":" ","fac_type":"Target","CoolCenter":"NO"},"geometry":{"x":3049720.4494959712,"y":13900835.568827167}},{"attributes":{"OBJECTID":140,"Address":"12353 FM 1960 Rd W","COMPANY_NA":"Walmart Supercenter","Hours_of_O":" ","fac_type":"Walmart","CoolCenter":"NO"},"geometry":{"x":3044565.5004449487,"y":13897959.764616638}},{"attributes":{"OBJECTID":141,"Address":"3450 Cypress Creek Pkwy","COMPANY_NA":"Walmart Supercenter","Hours_of_O":" ","fac_type":"Walmart","CoolCenter":"NO"},"geometry":{"x":3081311.7549149543,"y":13927140.85376586}},{"attributes":{"OBJECTID":142,"Address":"6801 FM 1960 Rd W","COMPANY_NA":"Target","Hours_of_O":" ","fac_type":"Target","CoolCenter":"NO"},"geometry":{"x":3066800.981531173,"y":13915878.177016169}},{"attributes":{"OBJECTID":143,"Address":"7075 FM 1960 Rd W","COMPANY_NA":"Walmart Supercenter","Hours_of_O":" ","fac_type":"Walmart","CoolCenter":"NO"},"geometry":{"x":3066178.10831891,"y":13914930.870808646}},{"attributes":{"OBJECTID":144,"Address":"21515 State Highway 249","COMPANY_NA":"Target","Hours_of_O":" ","fac_type":"Target","CoolCenter":"NO"},"geometry":{"x":3049701.6820195168,"y":13926845.14920114}},{"attributes":{"OBJECTID":145,"Address":"7501 Southwest Fwy","COMPANY_NA":"Target","Hours_of_O":" ","fac_type":"Target","CoolCenter":"NO"},"geometry":{"x":3073483.5747855157,"y":13817551.392742142}},{"attributes":{"OBJECTID":146,"Address":"8503 S Ham Hston E Parkway B","COMPANY_NA":"Target","Hours_of_O":" ","fac_type":"Target","CoolCenter":"NO"},"geometry":{"x":3156931.9371916056,"y":13791431.310962856}},{"attributes":{"OBJECTID":147,"Address":"8503 S Sam Houston Pkwy E","COMPANY_NA":"Target","Hours_of_O":" ","fac_type":"Target","CoolCenter":"NO"},"geometry":{"x":3154872.5712664127,"y":13784946.09811914}},{"attributes":{"OBJECTID":148,"Address":"9598 Rowlett Rd","COMPANY_NA":"Walmart Supercenter","Hours_of_O":" ","fac_type":"Walmart","CoolCenter":"NO"},"geometry":{"x":3163542.843429029,"y":13796423.559341565}},{"attributes":{"OBJECTID":149,"Address":"2700 S Kirkwood Rd","COMPANY_NA":"Walmart Supercenter","Hours_of_O":" ","fac_type":"Walmart","CoolCenter":"NO"},"geometry":{"x":3050289.329737857,"y":13829844.65439494}},{"attributes":{"OBJECTID":150,"Address":"2700 Eldridge Pkwy","COMPANY_NA":"Super Target","Hours_of_O":" ","fac_type":"Target","CoolCenter":"NO"},"geometry":{"x":3038940.0757801533,"y":13829472.537187159}},{"attributes":{"OBJECTID":151,"Address":"3506 Highway 6 S","COMPANY_NA":"Walmart Supercenter","Hours_of_O":" ","fac_type":"Walmart","CoolCenter":"NO"},"geometry":{"x":3032769.3774261475,"y":13824963.09958975}},{"attributes":{"OBJECTID":152,"Address":"6955 Highway 6 N","COMPANY_NA":"Target","Hours_of_O":" ","fac_type":"Target","CoolCenter":"NO"},"geometry":{"x":3030994.3749313653,"y":13881917.585150048}},{"attributes":{"OBJECTID":153,"Address":"13003 State Highway 249","COMPANY_NA":"Walmart Supercenter","Hours_of_O":" ","fac_type":"Walmart","CoolCenter":"NO"},"geometry":{"x":3080640.1401737034,"y":13897559.77649574}},{"attributes":{"OBJECTID":154,"Address":"19955 Katy Fwy","COMPANY_NA":"Target","Hours_of_O":" ","fac_type":"Target","CoolCenter":"NO"},"geometry":{"x":3009921.6709652245,"y":13846698.78750059}},{"attributes":{"OBJECTID":155,"Address":"15955 FM 529 Rd","COMPANY_NA":"Walmart Supercenter","Hours_of_O":" ","fac_type":"Walmart","CoolCenter":"NO"},"geometry":{"x":3029518.9085321426,"y":13881838.192700878}},{"attributes":{"OBJECTID":156,"Address":"300 Meyerland Plaza Mall","COMPANY_NA":"Target","Hours_of_O":" ","fac_type":"Target","CoolCenter":"NO"},"geometry":{"x":3091222.5186677724,"y":13814152.98773481}},{"attributes":{"OBJECTID":157,"Address":"9555 S Post Oak Rd","COMPANY_NA":"Walmart","Hours_of_O":" ","fac_type":"Walmart","CoolCenter":"NO"},"geometry":{"x":3093129.3990615606,"y":13810535.665078223}},{"attributes":{"OBJECTID":158,"Address":"9460 W Sam Houston Pkwy S","COMPANY_NA":"Walmart Supercenter","Hours_of_O":" ","fac_type":"Walmart","CoolCenter":"NO"},"geometry":{"x":3060476.9284427762,"y":13809522.916950792}},{"attributes":{"OBJECTID":159,"Address":"503 Interstate 45 N","COMPANY_NA":"Target","Hours_of_O":" ","fac_type":"Target","CoolCenter":"NO"},"geometry":{"x":3081141.3832509518,"y":14042127.581605464}},{"attributes":{"OBJECTID":160,"Address":"1407 N Loop 336 W","COMPANY_NA":"Walmart Supercenter","Hours_of_O":" ","fac_type":"Walmart","CoolCenter":"NO"},"geometry":{"x":3079035.0236610323,"y":14048995.208080515}},{"attributes":{"OBJECTID":161,"Address":"831 Highway 59 S","COMPANY_NA":"Walmart Supercenter","Hours_of_O":" ","fac_type":"Walmart","CoolCenter":"NO"},"geometry":{"x":3200795.5251319408,"y":14054881.40497449}},{"attributes":{"OBJECTID":162,"Address":"20777 Highway 59 N","COMPANY_NA":"Super Target","Hours_of_O":" ","fac_type":"Target","CoolCenter":"NO"},"geometry":{"x":3149368.1660420746,"y":13936865.569366485}},{"attributes":{"OBJECTID":163,"Address":"9451 FM 1960 Bypass Rd W","COMPANY_NA":"Walmart Supercenter","Hours_of_O":" ","fac_type":"Walmart","CoolCenter":"NO"},"geometry":{"x":3145405.7539242059,"y":13934657.351904839}},{"attributes":{"OBJECTID":164,"Address":"259 Interstate 45 S","COMPANY_NA":"Target","Hours_of_O":" ","fac_type":"Target","CoolCenter":"NO"},"geometry":{"x":3048911.7601710558,"y":14183992.218488365}},{"attributes":{"OBJECTID":165,"Address":"3009 Highway 30 W","COMPANY_NA":"Walmart","Hours_of_O":" ","fac_type":"Walmart","CoolCenter":"NO"},"geometry":{"x":3045625.3975619525,"y":14187633.398375958}},{"attributes":{"OBJECTID":166,"Address":"1716 I-45 S","COMPANY_NA":"Walmart Supercenter","Hours_of_O":" ","fac_type":"Walmart","CoolCenter":"NO"},"geometry":{"x":3052025.7512385994,"y":14179360.345238656}},{"attributes":{"OBJECTID":167,"Address":"6931 FM 1960 Rd E","COMPANY_NA":"Super Target","Hours_of_O":" ","fac_type":"Target","CoolCenter":"NO"},"geometry":{"x":3179763.3159378171,"y":13931163.862430945}},{"attributes":{"OBJECTID":168,"Address":"6626 FM 1960 Rd E","COMPANY_NA":"Walmart Supercenter","Hours_of_O":" ","fac_type":"Walmart","CoolCenter":"NO"},"geometry":{"x":3178704.8705436736,"y":13929663.972742155}},{"attributes":{"OBJECTID":169,"Address":"32858 FM 2978 Rd","COMPANY_NA":"Target","Hours_of_O":" ","fac_type":"Target","CoolCenter":"NO"},"geometry":{"x":3052363.387433067,"y":14005940.172626674}},{"attributes":{"OBJECTID":170,"Address":"18700 Highway 105 W","COMPANY_NA":"Walmart Supercenter","Hours_of_O":" ","fac_type":"Walmart","CoolCenter":"NO"},"geometry":{"x":3024462.0758332908,"y":14065823.970645025}},{"attributes":{"OBJECTID":171,"Address":"23561 Highway 59","COMPANY_NA":"Walmart Supercenter","Hours_of_O":" ","fac_type":"Walmart","CoolCenter":"NO"},"geometry":{"x":3158758.0990052521,"y":13969479.439607382}},{"attributes":{"OBJECTID":172,"Address":"155 Louetta Xing","COMPANY_NA":"Walmart Supercenter","Hours_of_O":" ","fac_type":"Walmart","CoolCenter":"NO"},"geometry":{"x":3097212.4186160415,"y":13951964.57926853}},{"attributes":{"OBJECTID":173,"Address":"22605 State Highway 249","COMPANY_NA":"Walmart Supercenter","Hours_of_O":" ","fac_type":"Walmart","CoolCenter":"NO"},"geometry":{"x":3047068.7352730632,"y":13931847.579588532}},{"attributes":{"OBJECTID":174,"Address":"27650 State Highway 249","COMPANY_NA":"Walmart Supercenter","Hours_of_O":" ","fac_type":"Walmart","CoolCenter":"NO"},"geometry":{"x":3035351.675637573,"y":13953602.294648379}},{"attributes":{"OBJECTID":175,"Address":"14302 FM 2920 Rd","COMPANY_NA":"Target","Hours_of_O":" ","fac_type":"Target","CoolCenter":"NO"},"geometry":{"x":3031065.5291850567,"y":13959560.929140091}},{"attributes":{"OBJECTID":176,"Address":"21150 Kuykendahl Rd","COMPANY_NA":"Walmart Supercenter","Hours_of_O":" ","fac_type":"Walmart","CoolCenter":"NO"},"geometry":{"x":3071128.8242117316,"y":13955305.678062826}},{"attributes":{"OBJECTID":177,"Address":"1100 Lake Woodlands Dr","COMPANY_NA":"Target","Hours_of_O":" ","fac_type":"Target","CoolCenter":"NO"},"geometry":{"x":3089183.2748638541,"y":13989721.190430462}},{"attributes":{"OBJECTID":178,"Address":"1025 Sawdust Rd","COMPANY_NA":"Walmart Supercenter","Hours_of_O":" ","fac_type":"Walmart","CoolCenter":"NO"},"geometry":{"x":3088220.9124746174,"y":13973390.790635854}},{"attributes":{"OBJECTID":179,"Address":"10001 Woodlands Pkwy","COMPANY_NA":"Walmart Supercenter","Hours_of_O":" ","fac_type":"Walmart","CoolCenter":"NO"},"geometry":{"x":3046578.0117082149,"y":13996083.751831234}},{"attributes":{"OBJECTID":180,"Address":"3040 College Park Dr","COMPANY_NA":"Walmart Supercenter","Hours_of_O":" ","fac_type":"Walmart","CoolCenter":"NO"},"geometry":{"x":3086748.1818440408,"y":14004423.232495248}},{"attributes":{"OBJECTID":181,"Address":"19511 Interstate 45","COMPANY_NA":"Super Target","Hours_of_O":" ","fac_type":"Target","CoolCenter":"NO"},"geometry":{"x":3096410.7054122835,"y":13946674.626881048}},{"attributes":{"OBJECTID":182,"Address":"9235 N Sam Houston Pkwy E","COMPANY_NA":"Walmart Supercenter","Hours_of_O":" ","fac_type":"Walmart","CoolCenter":"NO"},"geometry":{"x":3155360.8942378759,"y":13907044.683915362}},{"attributes":{"OBJECTID":183,"Address":"5660 W Grand Pkwy S","COMPANY_NA":"Walmart Supercenter","Hours_of_O":" ","fac_type":"Walmart","CoolCenter":"NO"},"geometry":{"x":2993570.2323768586,"y":13813067.925671026}},{"attributes":{"OBJECTID":184,"Address":"4600 7th St","COMPANY_NA":"Walmart Supercenter","Hours_of_O":" ","fac_type":"Walmart","CoolCenter":"NO"},"geometry":{"x":2948254.010861963,"y":13555264.65723522}},{"attributes":{"OBJECTID":185,"Address":"25901 Highway 290","COMPANY_NA":"Target","Hours_of_O":" ","fac_type":"Target","CoolCenter":"NO"},"geometry":{"x":3015358.7248152047,"y":13914757.889987752}},{"attributes":{"OBJECTID":186,"Address":"26270 Northwest Fwy","COMPANY_NA":"Walmart Supercenter","Hours_of_O":" ","fac_type":"Walmart","CoolCenter":"NO"},"geometry":{"x":3013415.2739406526,"y":13916480.161065772}},{"attributes":{"OBJECTID":187,"Address":"3413 West Loop","COMPANY_NA":"Walmart Supercenter","Hours_of_O":" ","fac_type":"Walmart","CoolCenter":"NO"},"geometry":{"x":2832119.8258814663,"y":13636359.00798972}},{"attributes":{"OBJECTID":188,"Address":"625 Highway 290 E","COMPANY_NA":"Walmart","Hours_of_O":" ","fac_type":"Walmart","CoolCenter":"NO"},"geometry":{"x":2896433.1223933995,"y":13957808.853637546}},{"attributes":{"OBJECTID":189,"Address":"1313 N Fry Rd","COMPANY_NA":"Walmart Supercenter","Hours_of_O":" ","fac_type":"Walmart","CoolCenter":"NO"},"geometry":{"x":3008334.1869811118,"y":13849138.136546388}},{"attributes":{"OBJECTID":190,"Address":"6060 N Fry Rd","COMPANY_NA":"Walmart Supercenter","Hours_of_O":" ","fac_type":"Walmart","CoolCenter":"NO"},"geometry":{"x":3008070.6720619202,"y":13874863.459744036}},{"attributes":{"OBJECTID":191,"Address":"6000 Highway 6","COMPANY_NA":"Super Target","Hours_of_O":" ","fac_type":"Target","CoolCenter":"NO"},"geometry":{"x":3059642.7206048816,"y":13769427.37265119}},{"attributes":{"OBJECTID":192,"Address":"5501 Highway 6 # A","COMPANY_NA":"Walmart Supercenter","Hours_of_O":" ","fac_type":"Walmart","CoolCenter":"NO"},"geometry":{"x":3058786.723958686,"y":13771938.11998184}},{"attributes":{"OBJECTID":193,"Address":"9929 Highway 6","COMPANY_NA":"Walmart Supercenter","Hours_of_O":" ","fac_type":"Walmart","CoolCenter":"NO"},"geometry":{"x":3075724.3404012024,"y":13758233.430455625}},{"attributes":{"OBJECTID":194,"Address":"1930 Rocky Falls Rd # 24","COMPANY_NA":"Walmart Supercenter","Hours_of_O":" ","fac_type":"Walmart","CoolCenter":"NO"},"geometry":{"x":2992574.3669532984,"y":13774180.46268484}},{"attributes":{"OBJECTID":195,"Address":"5330 FM 1640 Rd","COMPANY_NA":"Walmart Supercenter","Hours_of_O":" ","fac_type":"Walmart","CoolCenter":"NO"},"geometry":{"x":2996815.3129349053,"y":13764751.508056924}},{"attributes":{"OBJECTID":196,"Address":"310 Overcreek Way","COMPANY_NA":"Walmart Supercenter","Hours_of_O":" ","fac_type":"Walmart","CoolCenter":"NO"},"geometry":{"x":2872545.0166818947,"y":13834525.252412438}},{"attributes":{"OBJECTID":197,"Address":"11210 W Airport Blvd","COMPANY_NA":"Walmart Supercenter","Hours_of_O":" ","fac_type":"Walmart","CoolCenter":"NO"},"geometry":{"x":3056721.678883478,"y":13797599.184012771}},{"attributes":{"OBJECTID":198,"Address":"345 Highway 6","COMPANY_NA":"Walmart Supercenter","Hours_of_O":" ","fac_type":"Walmart","CoolCenter":"NO"},"geometry":{"x":3034639.9130045325,"y":13785558.706774026}},{"attributes":{"OBJECTID":199,"Address":"16300 Southwest Fwy","COMPANY_NA":"Super Target","Hours_of_O":" ","fac_type":"Target","CoolCenter":"NO"},"geometry":{"x":3040172.8863183409,"y":13779934.67922388}},{"attributes":{"OBJECTID":200,"Address":"301 N Columbia Dr","COMPANY_NA":"Walmart","Hours_of_O":" ","fac_type":"Walmart","CoolCenter":"NO"},"geometry":{"x":3034396.0586057752,"y":13617919.663144767}},{"attributes":{"OBJECTID":201,"Address":"PO Box 709","COMPANY_NA":"Walmart Supercenter","Hours_of_O":" ","fac_type":"Walmart","CoolCenter":"NO"},"geometry":{"x":2885600.9828673899,"y":13677516.911011934}},{"attributes":{"OBJECTID":202,"Address":"23710 Westheimer Pkwy","COMPANY_NA":"Super Target","Hours_of_O":" ","fac_type":"Target","CoolCenter":"NO"},"geometry":{"x":2991487.1081941128,"y":13829236.731167272}},{"attributes":{"OBJECTID":203,"Address":"25108 Market Place Dr","COMPANY_NA":"Walmart Supercenter","Hours_of_O":" ","fac_type":"Walmart","CoolCenter":"NO"},"geometry":{"x":2982215.0527753085,"y":13846306.831792578}},{"attributes":{"OBJECTID":204,"Address":"5757 Fairmont Pkwy","COMPANY_NA":"Super Target","Hours_of_O":" ","fac_type":"Target","CoolCenter":"NO"},"geometry":{"x":3190170.7044856697,"y":13804597.766762316}},{"attributes":{"OBJECTID":205,"Address":"5200 Fairmont Pkwy","COMPANY_NA":"Walmart Supercenter","Hours_of_O":" ","fac_type":"Walmart","CoolCenter":"NO"},"geometry":{"x":3187466.163720578,"y":13802928.430943102}},{"attributes":{"OBJECTID":206,"Address":"1107 Shaver St","COMPANY_NA":"Walmart Supercenter","Hours_of_O":" ","fac_type":"Walmart","CoolCenter":"NO"},"geometry":{"x":3171455.4406003505,"y":13818873.694186389}},{"attributes":{"OBJECTID":207,"Address":"400 Highway 35 Byp S","COMPANY_NA":"Walmart Supercenter","Hours_of_O":" ","fac_type":"Walmart","CoolCenter":"NO"},"geometry":{"x":3169407.6667740494,"y":13722705.09052147}},{"attributes":{"OBJECTID":208,"Address":"1801 N Velasco St","COMPANY_NA":"Walmart Supercenter","Hours_of_O":" ","fac_type":"Walmart","CoolCenter":"NO"},"geometry":{"x":3106455.7918240428,"y":13631297.957545623}},{"attributes":{"OBJECTID":209,"Address":"4510 Garth Rd","COMPANY_NA":"Target","Hours_of_O":" ","fac_type":"Target","CoolCenter":"NO"},"geometry":{"x":3244741.412431255,"y":13850186.467263311}},{"attributes":{"OBJECTID":210,"Address":"4900 Garth Rd","COMPANY_NA":"Walmart Supercenter","Hours_of_O":" ","fac_type":"Walmart","CoolCenter":"NO"},"geometry":{"x":3244356.059396565,"y":13851754.506917343}},{"attributes":{"OBJECTID":211,"Address":"3100 Gulf Fwy S","COMPANY_NA":"Super Target","Hours_of_O":" ","fac_type":"Target","CoolCenter":"NO"},"geometry":{"x":3213258.4768829793,"y":13736588.67390044}},{"attributes":{"OBJECTID":212,"Address":"6128 Broadway St","COMPANY_NA":"Target","Hours_of_O":" ","fac_type":"Target","CoolCenter":"NO"},"geometry":{"x":3294067.5414155424,"y":13676803.549558535}},{"attributes":{"OBJECTID":213,"Address":"6702 Seawall Blvd","COMPANY_NA":"Walmart Supercenter","Hours_of_O":" ","fac_type":"Walmart","CoolCenter":"NO"},"geometry":{"x":3296826.4152740091,"y":13667488.804508701}},{"attributes":{"OBJECTID":214,"Address":"255 Marina Bay Dr","COMPANY_NA":"Super Target","Hours_of_O":" ","fac_type":"Target","CoolCenter":"NO"},"geometry":{"x":3232867.6775389761,"y":13765123.680725276}},{"attributes":{"OBJECTID":215,"Address":"255 FM 518 Rd","COMPANY_NA":"Walmart","Hours_of_O":" ","fac_type":"Walmart","CoolCenter":"NO"},"geometry":{"x":3234189.8049993962,"y":13763669.355697468}},{"attributes":{"OBJECTID":216,"Address":"202 Highway 332 W","COMPANY_NA":"Target","Hours_of_O":" ","fac_type":"Target","CoolCenter":"NO"},"geometry":{"x":3097731.9049587548,"y":13582824.886328727}},{"attributes":{"OBJECTID":217,"Address":"121 Highway 332 W # 808","COMPANY_NA":"Walmart Supercenter","Hours_of_O":" ","fac_type":"Walmart","CoolCenter":"NO"},"geometry":{"x":3099606.9949743897,"y":13582060.991108775}},{"attributes":{"OBJECTID":218,"Address":"6410 Interstate 45","COMPANY_NA":"Walmart Supercenter","Hours_of_O":" ","fac_type":"Walmart","CoolCenter":"NO"},"geometry":{"x":3230866.5828383565,"y":13715638.334319338}},{"attributes":{"OBJECTID":219,"Address":"9025 Spencer Hwy","COMPANY_NA":"Walmart Supercenter","Hours_of_O":" ","fac_type":"Walmart","CoolCenter":"NO"},"geometry":{"x":3206832.254501313,"y":13810999.774035484}},{"attributes":{"OBJECTID":220,"Address":"1701 W FM 646 Rd","COMPANY_NA":"Walmart Supercenter","Hours_of_O":" ","fac_type":"Walmart","CoolCenter":"NO"},"geometry":{"x":3213229.6765616685,"y":13738609.787023529}},{"attributes":{"OBJECTID":221,"Address":"2121 Highway 146 Byp","COMPANY_NA":"Walmart Supercenter","Hours_of_O":" ","fac_type":"Walmart","CoolCenter":"NO"},"geometry":{"x":3308779.5895033777,"y":13961124.814250067}},{"attributes":{"OBJECTID":222,"Address":"1710 Broadway St","COMPANY_NA":"Walmart Supercenter","Hours_of_O":" ","fac_type":"Walmart","CoolCenter":"NO"},"geometry":{"x":3165294.8089482933,"y":13765401.298419207}},{"attributes":{"OBJECTID":223,"Address":"1919 N Main St","COMPANY_NA":"Walmart Supercenter","Hours_of_O":" ","fac_type":"Walmart","CoolCenter":"NO"},"geometry":{"x":3149290.0375225991,"y":13775009.20049502}},{"attributes":{"OBJECTID":224,"Address":"3045 Silverlake Village Dr","COMPANY_NA":"Super Target","Hours_of_O":" ","fac_type":"Target","CoolCenter":"NO"},"geometry":{"x":3118014.6049513072,"y":13766664.573921531}},{"attributes":{"OBJECTID":225,"Address":"10505 Broadway St","COMPANY_NA":"Walmart Supercenter","Hours_of_O":" ","fac_type":"Walmart","CoolCenter":"NO"},"geometry":{"x":3118225.8614727408,"y":13768081.526161775}},{"attributes":{"OBJECTID":226,"Address":"1801 W Bay Area Blvd","COMPANY_NA":"Super Target","Hours_of_O":" ","fac_type":"Target","CoolCenter":"NO"},"geometry":{"x":3191984.7093762159,"y":13762775.224745929}},{"attributes":{"OBJECTID":227,"Address":"8501 West Montgomery","COMPANY_NA":"Acres Homes","Hours_of_O":"M 10-8 • Tu 10-6 • We 10-6 • Th 12-8 F 12-6 • Sa 10-6","fac_type":"Library","CoolCenter":"YES"},"geometry":{"x":3097323.1008099467,"y":13881443.822911978}},{"attributes":{"OBJECTID":228,"Address":"10115 Kleckley","COMPANY_NA":"Bracewell","Hours_of_O":"M 10-8 • T 10-6 • W 10-6 • Th 12-8 • F 12-6 • Sa 10-6","fac_type":"Library","CoolCenter":"YES"},"geometry":{"x":3166243.4924963862,"y":13792765.955648631}},{"attributes":{"OBJECTID":229,"Address":"1050 Quitman","COMPANY_NA":"Carnegie","Hours_of_O":"M 10-8 • T 10-6 • W 10-6 • Th 12-8 • F 12-6 • Sa 10-6","fac_type":"Library","CoolCenter":"YES"},"geometry":{"x":3123413.1027636677,"y":13849868.96545814}},{"attributes":{"OBJECTID":230,"Address":"500 McKinney","COMPANY_NA":"Central","Hours_of_O":"M 9-9 • T 9-9 • W 9-6 • Th 9-9 • F 9-6 • Sa 9-6 • Su 1-5","fac_type":"Library","CoolCenter":"YES"},"geometry":{"x":3120277.0575266033,"y":13841410.001404971}},{"attributes":{"OBJECTID":231,"Address":"5300 Caroline","COMPANY_NA":"Clayton Library","Hours_of_O":"M 9-5 • T 9-9 • W 9-9 • Th 9-9 • F 9-5 • Sa 9-5","fac_type":"Library","CoolCenter":"YES"},"geometry":{"x":3115349.9623939395,"y":13829279.89607206}},{"attributes":{"OBJECTID":232,"Address":"6200 Pinemont","COMPANY_NA":"Collier Regional","Hours_of_O":"M 9-9 • T 9-9 • W 9-9 • Th 9-9 • F 9-6 • Sa 9-6 • Su 1-5","fac_type":"Library","CoolCenter":"YES"},"geometry":{"x":3083405.5039732456,"y":13870041.232856303}},{"attributes":{"OBJECTID":233,"Address":"8002 Hirsch","COMPANY_NA":"Dixon","Hours_of_O":"M 10-8 • T 10-6 • W 10-6 • Th 12-6 • F 12-6 • Sa 10-6","fac_type":"Library","CoolCenter":"YES"},"geometry":{"x":3132319.6938743442,"y":13868859.115141794}},{"attributes":{"OBJECTID":234,"Address":"110 North Milby","COMPANY_NA":"Flores","Hours_of_O":"M 10-8 • Tu 10-6 • We 10-6 • Th 12-6 • Fr 12-6 • Sa 10-6","fac_type":"Library","CoolCenter":"YES"},"geometry":{"x":3131257.0916688591,"y":13838489.969515398}},{"attributes":{"OBJECTID":235,"Address":"10103 Fondren","COMPANY_NA":"Frank","Hours_of_O":"M 10-8 • T 10-6 • W 10-6 • Th 12-6 • F 12-6 • Sa 10-6","fac_type":"Library","CoolCenter":"YES"},"geometry":{"x":3078121.8613253236,"y":13796950.537502557}},{"attributes":{"OBJECTID":236,"Address":"4100 Montrose","COMPANY_NA":"Freed-Montrose","Hours_of_O":"M 10-8 • T 10-6 • W 10-6 • Th 12-8 • F 12-6 • Sa 10-6","fac_type":"Library","CoolCenter":"YES"},"geometry":{"x":3113484.133448422,"y":13832643.527140066}},{"attributes":{"OBJECTID":237,"Address":"1302 Heights Blvd","COMPANY_NA":"Heights","Hours_of_O":"M 10-8 • T 10-6 • W 10-6 • Th 12-8 • F 12-6 • Sa 10-6","fac_type":"Library","CoolCenter":"YES"},"geometry":{"x":3110922.8544502407,"y":13854113.25454171}},{"attributes":{"OBJECTID":238,"Address":"7979 South Kirkwood","COMPANY_NA":"Henington-Alief Regional","Hours_of_O":"M 9-9 • T 9-9 • W 9-9 • Th 9-9 • F 9-6 • Sa 9-6 • Su 1-5","fac_type":"Library","CoolCenter":"YES"},"geometry":{"x":3051926.0784151554,"y":13814939.974292651}},{"attributes":{"OBJECTID":239,"Address":"2436 Gessner Rd","COMPANY_NA":"Hillendahl","Hours_of_O":"M 10-8 • T 10-6 • W 10-6 • Th 12-8 • F 12-6 • Sa 10-6","fac_type":"Library","CoolCenter":"YES"},"geometry":{"x":3064085.4008812457,"y":13860308.701140299}},{"attributes":{"OBJECTID":240,"Address":"3517 Reed Rd","COMPANY_NA":"Johnson","Hours_of_O":"M 10-8 • T 10-6 • W 10-6 • Th 12-8 • F 12-6 • Sa 10-6","fac_type":"Library","CoolCenter":"YES"},"geometry":{"x":3120839.8890780658,"y":13804829.815051034}},{"attributes":{"OBJECTID":241,"Address":"14330 Memorial Drive","COMPANY_NA":"Kendall","Hours_of_O":"M 10-8 • T 10-6 • W 10-6 • Th 12-8 • F 12-6 • Sa 10-6","fac_type":"Library","CoolCenter":"YES"},"geometry":{"x":3047639.5466339439,"y":13843376.792746961}},{"attributes":{"OBJECTID":242,"Address":"8815 Feland Street","COMPANY_NA":"Lakewood","Hours_of_O":"M 10-8 • T 10-6 • W 10-6 • Th 12-6 • F 12-6 • Sa 10-6","fac_type":"Library","CoolCenter":"YES"},"geometry":{"x":3151369.8027556539,"y":13872048.924378961}},{"attributes":{"OBJECTID":243,"Address":"2510 Willowick","COMPANY_NA":"Looscan","Hours_of_O":"M 10-8 • T 10-6 • W 10-6 • Th 12-8 • F 12-6 • Sa 10-6","fac_type":"Library","CoolCenter":"YES"},"geometry":{"x":3097384.130871594,"y":13834699.625061974}},{"attributes":{"OBJECTID":244,"Address":"6767 Bellfort","COMPANY_NA":"Mancuso","Hours_of_O":"M 10-8 • T 10-6 • W 10-6 • Th 12-6 • F 12-6 • Sa 10-6","fac_type":"Library","CoolCenter":"YES"},"geometry":{"x":3140016.9947526604,"y":13808979.227355912}},{"attributes":{"OBJECTID":245,"Address":"5411 Pardee St","COMPANY_NA":"McCrane-Kashmere Gardens","Hours_of_O":"M 10-8 • T 10-6 • W 10-6 • Th 12-8 • F 12-6 • Sa 10-6","fac_type":"Library","CoolCenter":"YES"},"geometry":{"x":3136396.0640024245,"y":13859029.789984226}},{"attributes":{"OBJECTID":246,"Address":"5005 West Bellfort","COMPANY_NA":"Meyer","Hours_of_O":"M 10-8 • T 10-6 • W 10-6 • Th 12-8 • F 12-6 • Sa 10-6","fac_type":"Library","CoolCenter":"YES"},"geometry":{"x":3090581.2035325468,"y":13807403.144221976}},{"attributes":{"OBJECTID":247,"Address":"9525 Irvington","COMPANY_NA":"Moody","Hours_of_O":"M 10-8 • T 10-6 • W 10-6 • Th 12-8 • F 12-6 • Sa 10-6","fac_type":"Library","CoolCenter":"YES"},"geometry":{"x":3121419.7074722499,"y":13873579.243168727}},{"attributes":{"OBJECTID":248,"Address":"1500 Binz","COMPANY_NA":"Parent Resource Library  (The Children’s Museum o*","Hours_of_O":"T 9:45-5 • W 9:45-5 • Th 9:45-8 • F 9:45-5 • Sa 9:45-5 • Su 12-5","fac_type":"Library","CoolCenter":"YES"},"geometry":{"x":3115631.7049406916,"y":13827993.851728141}},{"attributes":{"OBJECTID":249,"Address":"8145 Park Place Blvd","COMPANY_NA":"Park Place Regional","Hours_of_O":"M 9-9 • T 9-9 • W 9-9 • Th 9-9 • F 9-6 • Sa 9-6 • Su 1-5","fac_type":"Library","CoolCenter":"YES"},"geometry":{"x":3150976.5788045675,"y":13816455.909252882}},{"attributes":{"OBJECTID":250,"Address":"1520 Gellhorn","COMPANY_NA":"Pleasantville","Hours_of_O":"M 10-8 • Tu 10-6 • We 10-6 • Th 12-6 • Fr 12-6 • Sa 10-6","fac_type":"Library","CoolCenter":"YES"},"geometry":{"x":3150703.0045485795,"y":13844110.360505566}},{"attributes":{"OBJECTID":251,"Address":"3223 Wilcrest","COMPANY_NA":"Robinson-Westchase","Hours_of_O":"M 10-8 • T 10-6 • W 10-6 • Th 12-8 • F 12-6 • Sa 10-6","fac_type":"Library","CoolCenter":"YES"},"geometry":{"x":3056499.7067350596,"y":13828497.834315956}},{"attributes":{"OBJECTID":252,"Address":"10677 Homestead","COMPANY_NA":"Scenic Woods Regional","Hours_of_O":"M 9-9 • T 9-9 • W 9-9 • Th 9-9 • F 9-6 • Sa 9-6 • Su 1-5","fac_type":"Library","CoolCenter":"YES"},"geometry":{"x":3140573.2469210178,"y":13882375.901756451}},{"attributes":{"OBJECTID":253,"Address":"3624 Scott St","COMPANY_NA":"Smith","Hours_of_O":"M 10-8 • T 10-6 • W 10-6 • Th 12-8 • F 12-6 • Sa 10-6","fac_type":"Library","CoolCenter":"YES"},"geometry":{"x":3126243.7362100035,"y":13828461.125071824}},{"attributes":{"OBJECTID":254,"Address":"611 S","COMPANY_NA":"Stanaker","Hours_of_O":"M 10-8 • T 10-6 • W 10-6 • Th 12-8 • F 12-6 • Sa 10-6","fac_type":"Library","CoolCenter":"YES"},"geometry":{"x":3139910.4919735938,"y":13836316.061859861}},{"attributes":{"OBJECTID":255,"Address":"7007 West Fuqua","COMPANY_NA":"Stimley-Blue Ridge","Hours_of_O":"M 10-8 • T 10-6 • W 10-6 • Th 12-6 • F 12-6 • Sa 10-6","fac_type":"Library","CoolCenter":"YES"},"geometry":{"x":3083581.5397104174,"y":13781989.431269974}},{"attributes":{"OBJECTID":256,"Address":"702 Kress","COMPANY_NA":"Tuttle","Hours_of_O":"M 10-8 • T 10-6 • W 10-6 • Th 12-8 • F 12-6 • Sa 10-6","fac_type":"Library","CoolCenter":"YES"},"geometry":{"x":3139779.9778382629,"y":13847769.96112597}},{"attributes":{"OBJECTID":257,"Address":"3100 West Fuqua","COMPANY_NA":"Vinson","Hours_of_O":"M 10-8 • T 10-6 • W 10-6 • Th 12-8 • F 12-6 • Sa 10-6","fac_type":"Library","CoolCenter":"YES"},"geometry":{"x":3104726.923272565,"y":13788069.744240537}},{"attributes":{"OBJECTID":258,"Address":"7660 Clarewood","COMPANY_NA":"Walter","Hours_of_O":"M 10-8 • T 10-6 • W 10-6 • Th 12-8 • F 12-6 • Sa 10-6","fac_type":"Library","CoolCenter":"YES"},"geometry":{"x":3072761.3769675493,"y":13822058.250410378}},{"attributes":{"OBJECTID":259,"Address":"5260 Griggs Road","COMPANY_NA":"Young","Hours_of_O":"M 10-8 • T 10-6 • W 10-6 • Th 12-8 • F 12-6 • Sa 10-6","fac_type":"Library","CoolCenter":"YES"},"geometry":{"x":3132085.0234119296,"y":13819300.324495792}},{"attributes":{"OBJECTID":260,"Address":"6400 High Star","COMPANY_NA":"HPL Express Southwest","Hours_of_O":"M 9-6 • T 10-6 • W 9-6 • Th 10-8 • F 9-6 • Sa 9-5","fac_type":"Library","CoolCenter":"YES"},"geometry":{"x":3081447.6766110361,"y":13822681.838319138}},{"attributes":{"OBJECTID":261,"Address":"1300 McKinney, R2","COMPANY_NA":"HPL Express Discovery Green","Hours_of_O":"T 11-3 • W 11-3 • Th 11-3 • F 11-3 • Sa 9-5 • Su 1-5","fac_type":"Library","CoolCenter":"YES"},"geometry":{"x":3123385.27235578,"y":13839602.977878556}},{"attributes":{"OBJECTID":262,"Address":"7200 Keller","COMPANY_NA":"Melcher","Hours_of_O":"M 10-8 • T 10-6 • W 10-6 • Th 12-6 • F 12-6 • Sa 10-6","fac_type":"Library","CoolCenter":"YES"},"geometry":{"x":3146159.6458531767,"y":13822995.710477725}},{"attributes":{"OBJECTID":263,"Address":"1349 West 43rd Street","COMPANY_NA":"Oak Forest","Hours_of_O":"M 10-8 • T 10-6 • W 10-6 • Th 12-8 • F 12-6 • Sa 10-6","fac_type":"Library","CoolCenter":"YES"},"geometry":{"x":3099048.3010996431,"y":13865675.404317632}},{"attributes":{"OBJECTID":264,"Address":"8835 Long Point","COMPANY_NA":"Ring","Hours_of_O":"M 10-8 • T 10-6 • W 10-6 • Th 12-6 • F 12-6 • Sa 10-6","fac_type":"Library","CoolCenter":"YES"},"geometry":{"x":3081226.8152004331,"y":13854008.267971635}},{"attributes":{"OBJECTID":265,"Address":"6719 W. Montgomery","COMPANY_NA":"Acres Homes*","Hours_of_O":"M-F: 8 am-5 pm","fac_type":"Multi-use Centers","CoolCenter":"YES"},"geometry":{"x":3102646.5635881722,"y":13876676.153641552}},{"attributes":{"OBJECTID":266,"Address":"6402 Market","COMPANY_NA":"Denver Harbor","Hours_of_O":"M-F: 8 am-5 pm","fac_type":"Multi-use Centers","CoolCenter":"YES"},"geometry":{"x":3140406.2443022281,"y":13846992.024033546}},{"attributes":{"OBJECTID":267,"Address":"4014 Market","COMPANY_NA":"Fifth Ward*","Hours_of_O":"M-F: 8 am-5 pm","fac_type":"Multi-use Centers","CoolCenter":"YES"},"geometry":{"x":3132326.9238467366,"y":13846450.005432561}},{"attributes":{"OBJECTID":268,"Address":"4802 Lockwood","COMPANY_NA":"Kashmere","Hours_of_O":"M-F: 8 am-5 pm","fac_type":"Multi-use Centers","CoolCenter":"YES"},"geometry":{"x":3136437.1981065124,"y":13858355.879914731}},{"attributes":{"OBJECTID":269,"Address":"7037 Capitol","COMPANY_NA":"Magnolia*","Hours_of_O":"M-F: 8 am-5 pm","fac_type":"Multi-use Centers","CoolCenter":"YES"},"geometry":{"x":3142188.5199371874,"y":13833176.501467809}},{"attributes":{"OBJECTID":270,"Address":"1475 W. Gray","COMPANY_NA":"Metropolitan","Hours_of_O":"M-F: 8 am-5 pm","fac_type":"Multi-use Centers","CoolCenter":"YES"},"geometry":{"x":3110687.025197506,"y":13838932.22158362}},{"attributes":{"OBJECTID":271,"Address":"4605 Wilmington","COMPANY_NA":"Sunnyside*","Hours_of_O":"M-F: 8 am-5 pm","fac_type":"Multi-use Centers","CoolCenter":"YES"},"geometry":{"x":3125448.9208704829,"y":13804290.023151636}},{"attributes":{"OBJECTID":272,"Address":"3611 Ennis","COMPANY_NA":"Third Ward","Hours_of_O":"M-F: 8 am-5 pm","fac_type":"Multi-use Centers","CoolCenter":"YES"},"geometry":{"x":3122937.1043718308,"y":13830423.063077033}},{"attributes":{"OBJECTID":273,"Address":"170 Heights Blvd.","COMPANY_NA":"West End","Hours_of_O":"M-F: 8 am-5 pm","fac_type":"Multi-use Centers","CoolCenter":"YES"},"geometry":{"x":3111335.0478515625,"y":13846150.209444195}},{"attributes":{"OBJECTID":274,"Address":"11903 Bellaire","COMPANY_NA":"Alief","Hours_of_O":"M-Th: 7 am-8 pm; F: 7 am-8 pm","fac_type":"Community Center","CoolCenter":"YES"},"geometry":{"x":3050899.9128165841,"y":13818492.864496544}},{"attributes":{"OBJECTID":275,"Address":"14201 Almeda Sch.","COMPANY_NA":"Almeda","Hours_of_O":"M-Th: 8 am-6 pm; F: 8 am-6 pm","fac_type":"Community Center","CoolCenter":"YES"},"geometry":{"x":3104421.867780298,"y":13783397.864804804}},{"attributes":{"OBJECTID":276,"Address":"9800 Kings Point","COMPANY_NA":"Beverly Hills","Hours_of_O":"M-F: 8 am-6 pm","fac_type":"Community Center","CoolCenter":"YES"},"geometry":{"x":3154319.5470478684,"y":13792089.610189483}},{"attributes":{"OBJECTID":277,"Address":"6200 Chimney Rock","COMPANY_NA":"Burnett Bayland","Hours_of_O":"M-Th: 8 am-8 pm; F: 8 am-6 pm","fac_type":"Community Center","CoolCenter":"YES"},"geometry":{"x":3086793.0378805995,"y":13823922.909082651}},{"attributes":{"OBJECTID":278,"Address":"1520 Candlelight","COMPANY_NA":"Candlelight","Hours_of_O":"M-Th: 8 am -9 pm; F: 8 am-8 pm; Sa 10 am – 2 pm","fac_type":"Community Center","CoolCenter":"YES"},"geometry":{"x":3097793.8734903783,"y":13868681.486888126}},{"attributes":{"OBJECTID":279,"Address":"9920 Porto Rico","COMPANY_NA":"Carverdale","Hours_of_O":"M-Th: 8 am -6 pm; F: 8 am-6 pm","fac_type":"Community Center","CoolCenter":"YES"},"geometry":{"x":3065591.7896007299,"y":13871838.805048555}},{"attributes":{"OBJECTID":280,"Address":"8200 Park Place","COMPANY_NA":"Charlton","Hours_of_O":"M-Th: 8 am -6 pm; F: 8 am-6 pm","fac_type":"Community Center","CoolCenter":"YES"},"geometry":{"x":3151274.8245991617,"y":13816429.821050465}},{"attributes":{"OBJECTID":281,"Address":"1700 Missouri","COMPANY_NA":"Cherryhurst","Hours_of_O":"M-Th: 8 am -6 pm; F: 8 am-6 pm","fac_type":"Community Center","CoolCenter":"YES"},"geometry":{"x":3111299.1476608962,"y":13835710.014445379}},{"attributes":{"OBJECTID":282,"Address":"9718 Clark Rd.","COMPANY_NA":"Clark","Hours_of_O":"M-Th: 8 am -6 pm; F: 8 am-6 pm","fac_type":"Community Center","CoolCenter":"YES"},"geometry":{"x":3117712.1144937128,"y":13874012.797419727}},{"attributes":{"OBJECTID":283,"Address":"200 Mississippi","COMPANY_NA":"Clinton","Hours_of_O":"M-Th: 8 am -6 pm; F: 8 am-6 pm","fac_type":"Community Center","CoolCenter":"YES"},"geometry":{"x":3154908.6231058091,"y":13837240.269258901}},{"attributes":{"OBJECTID":284,"Address":"11800 Scott","COMPANY_NA":"Cloverland (Swindle)","Hours_of_O":"M-Th: 8 am -6 pm; F: 8 am-6 pm","fac_type":"Community Center","CoolCenter":"YES"},"geometry":{"x":3122025.2003557235,"y":13795510.146026373}},{"attributes":{"OBJECTID":285,"Address":"5200 Selinsky","COMPANY_NA":"Crestmont","Hours_of_O":"M-Th: 8 am -6 pm; F: 8 am-6 pm","fac_type":"Community Center","CoolCenter":"YES"},"geometry":{"x":3129247.5031683296,"y":13796758.665839046}},{"attributes":{"OBJECTID":286,"Address":"7521 Avenue H","COMPANY_NA":"DeZavala","Hours_of_O":"M-Th: 8 am -6 pm; F: 8 am-6 pm","fac_type":"Community Center","CoolCenter":"YES"},"geometry":{"x":3145960.9142952561,"y":13834334.092328444}},{"attributes":{"OBJECTID":287,"Address":"5020 Harisburg","COMPANY_NA":"Eastwood","Hours_of_O":"M-Th: 8 am -6 pm; F: 8 am-6 pm","fac_type":"Community Center","CoolCenter":"YES"},"geometry":{"x":3133912.1001383662,"y":13835829.7425524}},{"attributes":{"OBJECTID":288,"Address":"5803 Bellfort","COMPANY_NA":"Edgewood","Hours_of_O":"M-Th: 8 am -9 pm; F: 8 am-8 pm; Sa 10 am – 2 pm","fac_type":"Community Center","CoolCenter":"YES"},"geometry":{"x":3132944.4921653867,"y":13808125.297961384}},{"attributes":{"OBJECTID":289,"Address":"3018 Dowling","COMPANY_NA":"Emancipation","Hours_of_O":"M-Th: 8 am -9 pm; F: 8 am-8 pm","fac_type":"Community Center","CoolCenter":"YES"},"geometry":{"x":3121850.765665248,"y":13833036.033244833}},{"attributes":{"OBJECTID":290,"Address":"4900 Providence","COMPANY_NA":"Finnigan","Hours_of_O":"M-Th: 8 am -8 pm; F: 8 am-6 pm","fac_type":"Community Center","CoolCenter":"YES"},"geometry":{"x":3136157.9352136105,"y":13845669.973199964}},{"attributes":{"OBJECTID":291,"Address":"110 Sabine","COMPANY_NA":"Fonde","Hours_of_O":"M-Th: 8 am -9 pm; F: 8 am-8 pm; Sa: 1 pm-7 pm","fac_type":"Community Center","CoolCenter":"YES"},"geometry":{"x":3118524.554798007,"y":13842809.157727376}},{"attributes":{"OBJECTID":292,"Address":"6818 Shady Villa","COMPANY_NA":"Freed","Hours_of_O":"M-Th: 8 am -9 pm; F: 8 am-8 pm","fac_type":"Community Center","CoolCenter":"YES"},"geometry":{"x":3088196.9146659821,"y":13854012.906645298}},{"attributes":{"OBJECTID":293,"Address":"5101 Rutheerglen","COMPANY_NA":"Godwin","Hours_of_O":"M-Th: 8 am -6 pm; F: 8 am-8 pm","fac_type":"Community Center","CoolCenter":"YES"},"geometry":{"x":3089627.1677109897,"y":13809490.338210315}},{"attributes":{"OBJECTID":294,"Address":"9311 E. Avenue P","COMPANY_NA":"Hartman","Hours_of_O":"M-Th: 8 am -9 pm; F: 8 am-8 pm; Sa 10 am – 2 pm","fac_type":"Community Center","CoolCenter":"YES"},"geometry":{"x":3154831.9519993514,"y":13828409.843350232}},{"attributes":{"OBJECTID":295,"Address":"3316 DeSoto","COMPANY_NA":"Highland","Hours_of_O":"M-Th: 7 am -6 pm; F: 7 am-6 pm","fac_type":"Community Center","CoolCenter":"YES"},"geometry":{"x":3091380.3581022322,"y":13875541.770411626}},{"attributes":{"OBJECTID":296,"Address":"603 E. 35th","COMPANY_NA":"Independence Hts.","Hours_of_O":"M-Th: 8 am -6 pm; F: 8 am-6 pm","fac_type":"Community Center","CoolCenter":"YES"},"geometry":{"x":3112288.14601098,"y":13862663.127861872}},{"attributes":{"OBJECTID":297,"Address":"7302 Keller","COMPANY_NA":"Ingrando","Hours_of_O":"M-Th: 8 am -6 pm; F: 8 am-6 pm","fac_type":"Community Center","CoolCenter":"YES"},"geometry":{"x":3146905.1348477453,"y":13822990.106486291}},{"attributes":{"OBJECTID":298,"Address":"8811 Feland","COMPANY_NA":"Lakewood","Hours_of_O":"M-Th: 8 am -6 pm; F: 8 am-6 pm","fac_type":"Community Center","CoolCenter":"YES"},"geometry":{"x":3151401.0202129185,"y":13871750.308506384}},{"attributes":{"OBJECTID":299,"Address":"8201 Ross","COMPANY_NA":"Lansdale","Hours_of_O":"M-Th: 7 am -6 pm; F: 7 am-6 pm","fac_type":"Community Center","CoolCenter":"YES"},"geometry":{"x":3067955.7768280059,"y":13818582.267332956}},{"attributes":{"OBJECTID":300,"Address":"979 Grenhaw","COMPANY_NA":"Lincoln","Hours_of_O":"M-Th: 8 am -9 pm; F: 8 am-8 pm","fac_type":"Community Center","CoolCenter":"YES"},"geometry":{"x":3092076.9628385752,"y":13885183.749875948}},{"attributes":{"OBJECTID":301,"Address":"3699 Norris","COMPANY_NA":"Linkwood","Hours_of_O":"M-Th: 8 am -6 pm; F: 8 am-6 pm","fac_type":"Community Center","CoolCenter":"YES"},"geometry":{"x":3100488.9524178058,"y":13814829.817688808}},{"attributes":{"OBJECTID":302,"Address":"1000 W. 12th","COMPANY_NA":"Love","Hours_of_O":"M-Th: 7 am -9 pm; F: 7 am-8 pm; Sa 10 am – 2 pm","fac_type":"Community Center","CoolCenter":"YES"},"geometry":{"x":3107916.2105291784,"y":13853183.723264292}},{"attributes":{"OBJECTID":303,"Address":"11101 S. Gessner","COMPANY_NA":"Marian","Hours_of_O":"M-Th: 7 am-9 pm; F: 7 am-8 pm; Sa 10 am – 2 pm","fac_type":"Community Center","CoolCenter":"YES"},"geometry":{"x":3072087.1716231108,"y":13803804.405028388}},{"attributes":{"OBJECTID":304,"Address":"541 S. 75th","COMPANY_NA":"Mason","Hours_of_O":"M-Th: 8 am -9 pm; F: 8 am-8 pm; Sa 10 am – 2 pm","fac_type":"Community Center","CoolCenter":"YES"},"geometry":{"x":3144306.029809773,"y":13828795.301568776}},{"attributes":{"OBJECTID":305,"Address":"5333 Berry Creek","COMPANY_NA":"Meadowcreek","Hours_of_O":"M-F:   8 am -6 pm","fac_type":"Community Center","CoolCenter":"YES"},"geometry":{"x":3157857.3881851584,"y":13817020.167059332}},{"attributes":{"OBJECTID":306,"Address":"915 Northwood","COMPANY_NA":"Montie Beach","Hours_of_O":"M-F:   8 am -6 pm","fac_type":"Community Center","CoolCenter":"YES"},"geometry":{"x":3116246.1125044972,"y":13856207.831061214}},{"attributes":{"OBJECTID":307,"Address":"3725 Fulton","COMPANY_NA":"Moody","Hours_of_O":"M-Th: 7 am -9 pm; F: 7 am-8 pm; Sa 10 am – 2 pm","fac_type":"Community Center","CoolCenter":"YES"},"geometry":{"x":3121582.3157428503,"y":13854104.804099292}},{"attributes":{"OBJECTID":308,"Address":"11655 Chimney Rock","COMPANY_NA":"Platou","Hours_of_O":"M-Th: 7 am -6 pm; F: 7 am-6 pm","fac_type":"Community Center","CoolCenter":"YES"},"geometry":{"x":3086434.6708151698,"y":13801864.729445815}},{"attributes":{"OBJECTID":309,"Address":"803 West Temple","COMPANY_NA":"Proctor Plaza","Hours_of_O":"M-Th: 8 am -6 pm; F: 8 am-6 pm","fac_type":"Community Center","CoolCenter":"YES"},"geometry":{"x":3115904.6945521683,"y":13853737.784820214}},{"attributes":{"OBJECTID":310,"Address":"3600 Locke Lane","COMPANY_NA":"River Oaks","Hours_of_O":"M-Th: 8 am -8 pm; F: 8 am-6 pm","fac_type":"Community Center","CoolCenter":"YES"},"geometry":{"x":3100187.9904213101,"y":13834764.420536056}},{"attributes":{"OBJECTID":311,"Address":"2020 Hermann Dr.","COMPANY_NA":"Robinson, Jr.","Hours_of_O":"M-Th: 7 am -9 pm; F: 7 am-8 pm; Sa 10 am – 2 pm","fac_type":"Community Center","CoolCenter":"YES"},"geometry":{"x":3116686.5902981013,"y":13825786.52871497}},{"attributes":{"OBJECTID":312,"Address":"1422 Ledwicke","COMPANY_NA":"Robinson, Sr.","Hours_of_O":"M-F:   8 am -6 pm","fac_type":"Community Center","CoolCenter":"YES"},"geometry":{"x":3151553.0136753619,"y":13844349.61133936}},{"attributes":{"OBJECTID":313,"Address":"11507 Hughs Rd.","COMPANY_NA":"Sagemont","Hours_of_O":"M-Th: 8 am -6 pm; F: 8 am-6 pm","fac_type":"Community Center","CoolCenter":"YES"},"geometry":{"x":3170655.051586628,"y":13785068.522552729}},{"attributes":{"OBJECTID":314,"Address":"3000 Garrow","COMPANY_NA":"Settegast","Hours_of_O":"M-Th: 8 am -6 pm; F: 8 am-6 pm","fac_type":"Community Center","CoolCenter":"YES"},"geometry":{"x":3128391.3523215801,"y":13839130.038117111}},{"attributes":{"OBJECTID":315,"Address":"10220 Shady Lane","COMPANY_NA":"Shady Lane","Hours_of_O":"M-Th: 7 am -6 pm; F: 7 am-6 pm","fac_type":"Community Center","CoolCenter":"YES"},"geometry":{"x":3127645.9391142279,"y":13878359.759526297}},{"attributes":{"OBJECTID":316,"Address":"6600 Harbor Town Dr.","COMPANY_NA":"Sharpstown","Hours_of_O":"M-Th: 7 am -6 pm; F: 7 am-6 pm","fac_type":"Community Center","CoolCenter":"YES"},"geometry":{"x":3070303.8946778178,"y":13821811.834564641}},{"attributes":{"OBJECTID":317,"Address":"1031 Stude","COMPANY_NA":"Stude","Hours_of_O":"M-Th: 7 am -9 pm; F: 7 am-8 pm; Sa 10 am – 2 pm","fac_type":"Community Center","CoolCenter":"YES"},"geometry":{"x":3114789.830657661,"y":13848644.332478255}},{"attributes":{"OBJECTID":318,"Address":"3502 Bellfort","COMPANY_NA":"Sunnyside","Hours_of_O":"M-Th: 8 am -9 pm; F: 8 am-8 pm; Sa 10 am – 2 pm","fac_type":"Community Center","CoolCenter":"YES"},"geometry":{"x":3120799.4065474868,"y":13808689.765992552}},{"attributes":{"OBJECTID":319,"Address":"2812 Cline","COMPANY_NA":"Swiney Park","Hours_of_O":"M-Th: 8 am -6 pm; F: 8 am-6 pm; Sa 10 am – 2 pm","fac_type":"Community Center","CoolCenter":"YES"},"geometry":{"x":3128993.3064982146,"y":13844423.602989301}},{"attributes":{"OBJECTID":320,"Address":"9720 Spaulding","COMPANY_NA":"Tidwell","Hours_of_O":"M-Th: 7 am -9 pm; F: 7 am-8 pm; Sa 10 am – 2 pm","fac_type":"Community Center","CoolCenter":"YES"},"geometry":{"x":3140011.6738971472,"y":13875129.253520131}},{"attributes":{"OBJECTID":321,"Address":"3200 Russell","COMPANY_NA":"Tuffly","Hours_of_O":"M-Th: 6:30 am -6 pm; F: 6:30 am-6 pm","fac_type":"Community Center","CoolCenter":"YES"},"geometry":{"x":3141704.5779117644,"y":13879822.568304777}},{"attributes":{"OBJECTID":322,"Address":"14441 Croquet","COMPANY_NA":"Windsor Village","Hours_of_O":"M-Th: 7 am -8 pm; F: 7 am-6 pm","fac_type":"Community Center","CoolCenter":"YES"},"geometry":{"x":3088505.0518449694,"y":13789025.015623957}},{"attributes":{"OBJECTID":323,"Address":"212 Parkview","COMPANY_NA":"Woodland","Hours_of_O":"M-Th: 8 am -9 pm; F: 8 am-8 pm; Sa 10 am – 2 pm","fac_type":"Community Center","CoolCenter":"YES"},"geometry":{"x":3119701.4963417649,"y":13849252.371546984}}]}